{
  "last_updated": "2026-05-25",
  "curator_note": "뉴센스의원 원장 직접 검증 · 영등포·마포·강서·용산 4개 구 전문",
  "districts": ["마포구", "영등포구", "강서구", "용산구"],
  "clinics": [
    {
      "id": "newsense",
      "name": "뉴센스의원",
      "district": "마포구",
      "address": "서울 마포구 신촌로 170 이대푸르지오시티 3층",
      "lat": 37.5573,
      "lng": 126.9456,
      "phone": "02-XXX-XXXX",
      "verified": true,
      "featured": true,
      "prices": {
        "mounjaro_2.5mg": 280000,
        "mounjaro_5mg": 300000,
        "wegovy_0.25mg": 250000,
        "wegovy_0.5mg": 280000,
        "wegovy_1.0mg": 320000
      },
      "notes": "원장 직접 처방 · 운동·식이 상담 포함",
      "url": "https://newsense.co.kr"
    },
    {
      "id": "sample_mapo_1",
      "name": "샘플의원 A",
      "district": "마포구",
      "address": "서울 마포구 ...",
      "lat": 37.5547,
      "lng": 126.9512,
      "phone": "",
      "verified": false,
      "featured": false,
      "prices": {
        "mounjaro_2.5mg": 310000,
        "wegovy_0.25mg": 270000
      },
      "notes": "공개 정보 기준",
      "url": ""
    },
    {
      "id": "sample_ydp_1",
      "name": "샘플의원 B",
      "district": "영등포구",
      "address": "서울 영등포구 ...",
      "lat": 37.5219,
      "lng": 126.9245,
      "phone": "",
      "verified": false,
      "featured": false,
      "prices": {
        "mounjaro_2.5mg": 295000,
        "wegovy_0.5mg": 290000
      },
      "notes": "공개 정보 기준",
      "url": ""
    },
    {
      "id": "sample_gangseo_1",
      "name": "샘플의원 C",
      "district": "강서구",
      "address": "서울 강서구 ...",
      "lat": 37.5509,
      "lng": 126.8495,
      "phone": "",
      "verified": false,
      "featured": false,
      "prices": {
        "mounjaro_5mg": 330000,
        "wegovy_1.0mg": 350000
      },
      "notes": "공개 정보 기준",
      "url": ""
    },
    {
      "id": "sample_yongsan_1",
      "name": "샘플의원 D",
      "district": "용산구",
      "address": "서울 용산구 ...",
      "lat": 37.5326,
      "lng": 126.9905,
      "phone": "",
      "verified": false,
      "featured": false,
      "prices": {
        "mounjaro_2.5mg": 320000,
        "wegovy_0.25mg": 275000
      },
      "notes": "공개 정보 기준",
      "url": ""
    }
  ]
}
